,City,Lat,Lon,Max Temp (F),Humidity (%),Cloudiness (%),Wind Speed (MPH),Country,Date
0,Ushuaia,-54.8,-68.3,37.4,69,20,18.34,AR,1593212595
1,Puerto Ayora,-0.74,-90.35,72.0,87,69,3.0,EC,1593212595
2,George Town,5.41,100.34,80.6,94,20,3.36,MY,1593212595
3,Río Gallegos,-51.62,-69.22,26.6,92,0,9.17,AR,1593212595
4,Bluff,-46.6,168.33,39.0,83,88,3.0,NZ,1593212595
5,Fendou,46.65,124.87,65.14,86,100,3.49,CN,1593212595
6,Nuuk,64.18,-51.72,41.0,80,20,10.29,GL,1593212452
7,Mataura,-46.19,168.86,39.0,83,96,3.0,NZ,1593212595
8,College,64.86,-147.8,64.4,55,75,3.36,US,1593212438
9,Sri Aman,1.24,111.46,73.4,100,100,3.36,MY,1593212595
10,Albany,42.6,-73.97,80.01,59,43,5.53,US,1593212596
11,Mitsamiouli,-11.38,43.28,77.43,73,0,5.95,KM,1593212596
12,Hilo,19.73,-155.09,84.2,62,1,8.05,US,1593212596
13,Kaeo,-35.1,173.78,63.0,3,4,7.0,NZ,1593212596
14,Saint Paul Harbor,57.79,-152.41,60.8,48,90,10.29,US,1593212596
15,Olinda,-8.01,-34.86,77.0,78,40,5.82,BR,1593212596
16,Rikitea,-23.12,-134.97,74.07,81,84,13.53,PF,1593212596
17,Robertsport,6.75,-11.37,77.95,87,100,14.18,LR,1593212596
18,Dunedin,-45.87,170.5,57.0,71,81,1.01,NZ,1593212507
19,Lola,7.8,-8.53,71.2,97,47,3.94,GN,1593212596
20,Rocha,-34.48,-54.33,42.84,72,78,6.04,UY,1593212597
21,Road Town,18.42,-64.62,84.0,82,76,21.0,VG,1593212597
22,Hanmer Springs,-42.52,172.82,50.58,70,42,1.77,NZ,1593212597
23,Jamestown,42.1,-79.24,75.99,41,1,14.99,US,1593212597
24,Yellowknife,62.46,-114.35,66.99,52,75,9.17,CA,1593212462
25,Yaan,7.38,8.57,73.27,93,98,3.87,NG,1593212597
26,East London,-33.02,27.91,60.1,65,9,8.28,ZA,1593212597
27,Tiksi,71.69,128.87,61.05,48,68,8.1,RU,1593212597
28,Busselton,-33.65,115.33,55.99,93,14,13.15,AU,1593212598
29,Kapaa,22.08,-159.32,84.2,66,75,12.75,US,1593212598
30,Arraial do Cabo,-22.97,-42.03,72.25,89,49,5.95,BR,1593212598
31,Kruisfontein,-34.0,24.73,49.05,79,0,5.86,ZA,1593212598
32,Qarqīn,37.42,66.04,80.96,24,0,23.24,AF,1593212598
33,Sitka,57.05,-135.33,53.6,93,90,9.17,US,1593212598
34,Castro,-24.79,-50.01,56.19,97,100,10.13,BR,1593212598
35,Uruçuí,-7.23,-44.56,79.36,50,3,4.63,BR,1593212598
36,Fortuna,40.6,-124.16,66.0,72,20,13.87,US,1593212598
37,La Ronge,55.1,-105.28,71.6,40,75,11.41,CA,1593212598
38,Okhotsk,59.38,143.3,49.12,87,100,1.59,RU,1593212599
39,Tuatapere,-46.13,167.68,39.0,83,95,3.0,NZ,1593212599
40,Ponta do Sol,32.67,-17.1,69.8,68,40,8.05,PT,1593212599
41,Airai,-8.93,125.41,57.72,87,62,3.85,TL,1593212599
42,Anadyr,64.75,177.48,44.6,56,75,26.84,RU,1593212599
43,Vaini,-21.2,-175.2,78.8,74,40,9.17,TO,1593212599
44,Atuona,-9.8,-139.03,80.46,73,0,12.97,PF,1593212599
45,Sidrolândia,-20.93,-54.96,68.0,94,75,5.82,BR,1593212485
46,Cabo San Lucas,22.89,-109.91,93.2,48,5,8.05,MX,1593212409
47,Thompson,55.74,-97.86,77.0,38,75,5.82,CA,1593212546
48,Tuktoyaktuk,69.45,-133.04,37.4,93,90,11.41,CA,1593212600
49,Otane,-39.88,176.63,55.0,94,100,4.0,NZ,1593212600
50,Cidreira,-30.18,-50.21,51.33,61,100,6.4,BR,1593212600
51,Asbury Park,40.22,-74.01,82.99,42,40,10.29,US,1593212600
52,Lavrentiya,65.58,-171.0,43.38,91,100,32.66,RU,1593212600
53,Longyearbyen,78.22,15.64,46.4,70,40,12.75,SJ,1593212584
54,Laas,46.62,10.7,57.2,93,75,3.36,IT,1593212600
55,Saiha,22.48,92.97,69.89,93,99,1.81,IN,1593212601
56,Butaritari,3.07,172.79,83.71,75,93,11.54,KI,1593212601
57,Bagdarin,54.43,113.6,62.6,59,69,1.81,RU,1593212601
58,Ribeira Grande,38.52,-28.7,66.99,93,27,8.08,PT,1593212601
59,Yeppoon,-23.13,150.73,59.0,72,4,5.82,AU,1593212601
60,Kavieng,-2.57,150.8,83.25,71,32,2.98,PG,1593212601
61,Ondjiva,-17.07,15.73,52.18,42,0,4.18,AO,1593212601
62,Omaruru,-21.43,15.93,44.38,58,0,3.89,NA,1593212601
63,Miyako,39.64,141.95,71.78,76,85,4.9,JP,1593212601
64,Praia da Vitória,38.73,-27.07,71.6,68,75,9.19,PT,1593212601
65,Hīt,33.64,42.83,86.11,15,0,9.26,IQ,1593212602
66,Nanortalik,60.14,-45.24,40.78,89,61,4.09,GL,1593212602
67,Comodoro Rivadavia,-45.87,-67.5,37.4,69,75,6.93,AR,1593212473
68,Bathsheba,13.22,-59.52,84.2,74,40,21.92,BB,1593212602
69,Pitsunda,43.16,40.34,69.8,88,20,7.18,GE,1593212602
70,Punta Arenas,-53.15,-70.92,32.0,86,0,8.05,CL,1593212602
71,Mumford,5.26,-0.76,77.83,87,71,13.0,GH,1593212602
72,São Filipe,14.9,-24.5,73.96,81,81,2.89,CV,1593212602
73,Kirakira,-10.45,161.92,83.98,73,57,10.63,SB,1593212602
74,Payakumbuh,-0.22,100.63,70.09,86,100,0.87,ID,1593212603
75,Motala,58.54,15.04,69.8,73,15,3.36,SE,1593212603
76,Kitob,39.08,66.83,72.77,32,85,5.93,UZ,1593212603
77,Atar,20.52,-13.05,99.73,16,61,4.81,MR,1593212603
78,Khatanga,71.97,102.5,61.88,58,70,10.0,RU,1593212603
79,Mahébourg,-20.41,57.7,71.6,88,75,11.41,MU,1593212603
80,Iqaluit,63.75,-68.51,50.0,66,40,3.36,CA,1593212603
81,North Bend,43.41,-124.22,81.0,72,1,21.92,US,1593212603
82,Faanui,-16.48,-151.75,78.31,73,9,12.26,PF,1593212604
83,Coruripe,-10.13,-36.18,73.89,82,59,8.57,BR,1593212604
84,Haines Junction,60.75,-137.51,62.4,31,100,4.99,CA,1593212604
85,Lincoln,40.8,-96.67,90.0,55,75,6.26,US,1593212604
86,Hithadhoo,-0.6,73.08,84.49,72,93,7.56,MV,1593212604
87,Wakkanai,45.41,141.67,55.26,96,100,23.64,JP,1593212604
88,Bako,5.78,36.57,62.73,82,12,3.96,ET,1593212604
89,Bengkulu,-3.8,102.27,75.92,83,100,4.41,ID,1593212604
90,Barrow,71.29,-156.79,41.0,86,90,6.93,US,1593212402
91,Karratha,-20.74,116.85,65.3,29,0,9.8,AU,1593212460
92,Pochutla,15.74,-96.47,86.0,58,40,17.22,MX,1593212605
93,Clyde River,70.47,-68.59,46.4,87,20,5.82,CA,1593212605
94,Ancud,-41.87,-73.82,46.0,75,90,3.36,CL,1593212605
95,Port Alfred,-33.59,26.89,53.01,76,3,5.99,ZA,1593212605
96,Porto-Novo,6.5,2.6,73.4,94,40,9.17,BJ,1593212605
97,Olafsvik,64.89,-23.71,49.77,87,95,8.75,IS,1593212605
98,Moose Factory,51.26,-80.61,68.0,72,75,11.41,CA,1593212605
99,Linqing,36.85,115.71,82.17,59,25,2.84,CN,1593212606
100,Cloquet,46.72,-92.46,80.6,39,1,10.29,US,1593212332
101,Bethel,41.37,-73.41,82.4,32,1,8.05,US,1593212544
102,Avarua,-21.21,-159.78,75.2,64,65,5.82,CK,1593212388
103,Katherine,-14.47,132.27,64.4,48,0,5.82,AU,1593212606
104,Vuktyl,63.86,57.31,42.51,79,96,1.01,RU,1593212606
105,Saint-Philippe,-21.36,55.77,64.4,82,53,5.82,RE,1593212606
106,Rosario,-32.95,-60.64,53.01,54,100,3.36,AR,1593212569
107,Khorixas,-20.37,14.97,52.21,44,0,6.15,NA,1593212606
108,Kainantu,-6.29,145.87,66.79,74,39,3.38,PG,1593212607
109,General Pico,-35.66,-63.76,47.52,53,95,8.32,AR,1593212607
110,Qaanaaq,77.48,-69.36,36.48,83,14,1.63,GL,1593212607
111,Santa Catarina de Tepehuanes,25.35,-105.73,83.28,24,80,9.91,MX,1593212607
112,Hualmay,-11.1,-77.61,63.19,81,70,8.84,PE,1593212607
113,Palmer,42.16,-72.33,84.2,28,20,12.75,US,1593212607
114,Maragogi,-9.01,-35.22,74.95,81,86,7.47,BR,1593212607
115,Hobart,-42.88,147.33,42.8,81,37,10.29,AU,1593212433
116,Burns Lake,54.23,-125.75,62.62,58,58,8.39,CA,1593212402
117,Gobabis,-22.45,18.97,42.8,48,0,2.24,NA,1593212608
118,Carnarvon,-24.87,113.63,55.4,93,14,6.93,AU,1593212608
119,Esperance,-33.87,121.9,51.8,76,0,10.29,AU,1593212608
120,Muscat,23.61,58.59,89.6,70,66,2.24,OM,1593212608
121,Soligalich,59.08,42.29,59.99,89,42,4.83,RU,1593212608
122,Cherskiy,68.75,161.3,40.44,67,95,16.58,RU,1593212608
123,Sipe Sipe,-17.45,-66.38,66.2,37,20,13.87,BO,1593212608
124,Shingū,33.73,135.98,78.19,63,59,3.13,JP,1593212608
125,Alihe,50.57,123.72,66.54,70,14,1.45,CN,1593212608
126,Laguna,38.42,-121.42,102.0,30,1,5.82,US,1593212336
127,Los Boquerones,8.08,-80.85,81.01,81,100,4.94,PA,1593212609
128,Hässleholm,56.16,13.77,64.99,93,1,2.24,SE,1593212609
129,Mitú,1.2,-70.17,76.24,89,12,1.43,CO,1593212389
130,Lebu,-37.62,-73.65,49.75,93,74,13.15,CL,1593212609
131,Carballo,43.21,-8.69,64.99,82,75,5.82,ES,1593212609
132,Mar del Plata,-38.0,-57.56,46.0,87,5,5.82,AR,1593212357
133,Mareeba,-17.0,145.43,72.0,76,1,7.0,AU,1593212609
134,Warrington,53.39,-2.58,62.01,87,35,5.82,GB,1593212609
135,Sur,22.57,59.53,84.27,73,0,12.01,OM,1593212543
136,Novyy Svit,47.81,38.02,63.03,78,0,7.81,UA,1593212610
137,Pevek,69.7,170.31,31.06,98,93,17.78,RU,1593212610
138,Gaoual,11.75,-13.2,78.76,82,48,3.96,GN,1593212610
139,Anagé,-14.61,-41.14,70.68,59,19,4.03,BR,1593212610
140,Hasaki,35.73,140.83,73.0,94,75,4.7,JP,1593212505
141,Dikson,73.51,80.55,35.64,89,30,26.19,RU,1593212610
142,Tres Arroyos,-38.37,-60.28,40.33,74,59,6.08,AR,1593212610
143,Narsaq,60.92,-46.05,55.4,54,8,9.17,GL,1593212611
144,Tiznit Province,29.58,-9.5,69.71,63,20,1.95,MA,1593212611
145,Leningradskiy,69.38,178.42,32.31,95,100,18.39,RU,1593212611
146,Hay River,60.82,-115.8,66.2,48,75,12.75,CA,1593212611
147,Lakes Entrance,-37.88,147.98,42.01,97,48,6.71,AU,1593212611
148,Nizhneangarsk,55.78,109.55,59.34,60,44,3.29,RU,1593212611
149,Mossamedes,-15.2,12.15,64.17,79,0,2.53,AO,1593212611
150,Kortkeros,61.81,51.58,51.8,93,75,2.24,RU,1593212611
151,Nikolskoye,59.7,30.79,66.2,68,0,2.24,RU,1593212612
152,Pierre,44.37,-100.35,86.0,35,1,4.7,US,1593212429
153,Comarapa,-17.9,-64.48,53.74,94,97,2.86,BO,1593212612
154,Waingapu,-9.66,120.26,76.37,81,54,10.67,ID,1593212612
155,Codrington,-38.27,141.97,42.78,77,63,7.38,AU,1593212612
156,Gualeguay,-33.14,-59.31,45.95,63,100,3.47,AR,1593212612
157,Kanniyākumāri,8.08,77.57,80.44,79,65,18.39,IN,1593212406
158,Bridlington,54.08,-0.19,68.0,94,86,2.24,GB,1593212612
159,Pisco,-13.7,-76.22,64.4,77,4,8.05,PE,1593212332
160,Fort Nelson,58.81,-122.7,71.6,37,75,5.82,CA,1593212612
161,Sinnamary,5.38,-52.95,78.46,87,97,9.75,GF,1593212613
162,Presidente Médici,-11.18,-61.9,77.07,70,96,1.5,BR,1593212613
163,Atbasar,51.8,68.33,49.91,81,100,10.67,KZ,1593212613
164,Boca do Acre,-8.75,-67.4,80.46,72,75,1.34,BR,1593212613
165,New Norfolk,-42.78,147.06,42.01,89,56,2.66,AU,1593212613
166,Ostrovnoy,68.05,39.51,47.17,88,100,14.12,RU,1593212613
167,Urengoy,65.97,78.37,53.11,78,17,16.71,RU,1593212613
168,Lompoc,34.64,-120.46,69.01,72,8,14.99,US,1593212613
169,Tiarei,-17.53,-149.33,82.4,69,20,19.46,PF,1593212613
170,Whitehorse,60.72,-135.05,57.2,47,75,6.93,CA,1593212532
171,Teruel,40.67,-0.67,69.8,52,85,6.93,ES,1593212614
172,Baykit,61.67,96.37,67.75,55,21,2.01,RU,1593212614
173,Bredasdorp,-34.53,20.04,51.8,71,28,6.93,ZA,1593212614
174,Mandalgovi,45.76,106.27,66.27,38,39,11.59,MN,1593212614
175,Hermanus,-34.42,19.23,52.0,91,17,11.01,ZA,1593212614
176,Seminole,28.71,-81.21,90.0,55,1,12.75,US,1593212614
177,Port Elizabeth,-33.92,25.57,50.0,76,0,6.93,ZA,1593212615
178,Wahiawā,21.5,-158.02,87.8,51,40,11.41,US,1593212487
179,Nemuro,43.32,145.57,52.21,98,100,16.69,JP,1593212615
180,Touros,-5.2,-35.46,75.2,94,75,5.82,BR,1593212615
181,Najrān,17.49,44.13,89.6,18,40,4.7,SA,1593212615
182,Samdrup Jongkhar District,26.92,91.62,71.31,88,100,1.88,BT,1593212615
183,Provideniya,64.38,-173.3,44.35,81,99,25.66,RU,1593212615
184,Kodinsk,58.69,99.18,68.59,60,51,1.86,RU,1593212615
185,Saint-Augustin,51.23,-58.65,67.17,59,97,14.09,CA,1593212615
186,Alyangula,-13.85,136.42,75.2,88,75,1.12,AU,1593212616
187,Sicamous,50.83,-118.99,75.0,59,100,1.48,CA,1593212402
188,Mahibadhoo,3.78,72.97,82.63,75,100,11.68,MV,1593212616
189,Alghero,40.56,8.32,72.0,83,0,1.12,IT,1593212616
190,Kota Kinabalu,5.97,116.07,75.2,88,20,4.7,MY,1593212616
191,Geraldton,-28.77,114.6,57.2,93,40,13.87,AU,1593212616
192,Portland,45.52,-122.68,89.01,35,20,6.93,US,1593212072
193,Linxi,39.7,118.43,73.31,62,0,5.79,CN,1593212616
194,Paita,-5.09,-81.11,67.08,76,2,18.61,PE,1593212616
195,Yoichi,43.2,140.77,64.99,100,75,10.29,JP,1593212616
196,Gornoye Loo,43.71,39.6,69.8,88,20,6.13,RU,1593212617
197,Le Port,-20.94,55.29,68.0,77,20,14.99,RE,1593212337
198,Deputatsky,69.3,139.9,66.87,49,48,3.74,RU,1593212617
199,Tabasalu,59.43,24.53,62.6,77,0,5.59,EE,1593212343
200,Torbay,47.67,-52.73,73.4,60,40,16.11,CA,1593212617
201,Dingle,11.0,122.67,79.66,83,100,1.59,PH,1593212617
202,Westport,41.14,-73.36,84.0,42,1,9.17,US,1593212465
203,Spornoye,50.84,37.29,62.6,77,0,6.71,RU,1593212617
204,Novosilikatnyy,53.31,83.62,66.2,59,78,6.71,RU,1593212617
205,Waynesville,35.49,-82.99,69.01,89,78,3.0,US,1593212556
206,Saldanha,-33.01,17.94,55.4,82,60,13.87,ZA,1593212618
207,Santa Cruz de la Sierra,-17.8,-63.17,55.4,93,90,2.24,BO,1593212404
208,Ziro,27.63,93.83,58.82,100,100,1.01,IN,1593212618
209,Karachi,24.91,67.08,87.8,70,75,16.11,PK,1593212618
210,Dunyapur,29.8,71.72,95.0,59,40,6.93,PK,1593212618
211,Merauke,-8.47,140.33,79.18,81,97,17.25,ID,1593212618
212,San Quintín,30.48,-115.95,70.79,67,1,14.07,MX,1593212618
213,Chokurdakh,70.63,147.92,54.81,41,69,9.98,RU,1593212618
214,Hergla,36.03,10.51,80.6,78,6,12.75,TN,1593212619
215,Vestmannaeyjar,63.44,-20.27,51.01,86,100,6.91,IS,1593212584
216,Jahāngīrābād,28.42,78.1,88.88,54,14,4.38,IN,1593212619
217,Bismarck,46.81,-100.78,89.6,22,1,8.05,US,1593212619
218,Nueva Loja,0.08,-76.88,75.11,92,76,0.65,EC,1593212619
219,Cape Town,-33.93,18.42,60.01,87,75,21.92,ZA,1593212619
220,Zuwārah,32.93,12.08,84.45,39,0,11.03,LY,1593212619
221,Goderich,43.75,-81.72,80.01,62,90,9.62,CA,1593212402
222,Bangui,4.36,18.55,77.0,88,87,1.97,CF,1593212384
223,Lata,40.16,-8.33,64.99,84,84,5.01,PT,1593212619
224,Davila,18.47,120.58,77.0,94,75,4.7,PH,1593212620
225,Batagay,67.63,134.63,81.46,30,8,1.83,RU,1593212620
226,Torres,-29.34,-49.73,52.86,69,100,8.37,BR,1593212406
227,Idenao,4.25,9.0,77.0,94,20,8.05,CM,1593212620
228,Port Moresby,-9.44,147.18,78.8,83,75,11.41,PG,1593212419
229,Hong Kong,22.29,114.16,86.0,74,75,11.01,HK,1593212565
230,Lagoa,39.05,-27.98,66.42,95,49,11.63,PT,1593212584
231,Severo-Kuril'sk,50.68,156.12,52.2,65,83,10.42,RU,1593212620
232,Kapit,2.02,112.93,72.88,95,100,1.61,MY,1593212620
233,Tutóia,-2.76,-42.27,77.52,83,46,6.82,BR,1593212621
234,Saskylakh,71.92,114.08,81.12,30,21,10.38,RU,1593212621
235,Marsh Harbour,26.54,-77.06,82.98,72,92,10.38,BS,1593212621
236,Narrabri,-30.32,149.78,45.0,81,0,2.24,AU,1593212621
237,Kharp,66.8,65.81,46.04,81,100,14.14,RU,1593212621
238,Ossora,59.24,163.07,60.21,64,43,6.42,RU,1593212621
239,Xinzhi,36.5,111.7,74.68,51,54,2.84,CN,1593212621
240,Oktyabr'skoye,43.06,44.74,60.8,59,80,13.42,RU,1593212621
241,Genhe,50.78,121.52,60.91,86,100,1.81,CN,1593212621
242,Constantine,36.37,6.61,80.6,39,40,18.34,DZ,1593212583
243,Vanimo,-2.67,141.3,82.45,75,78,8.01,PG,1593212465
244,Xining,36.62,101.77,54.03,59,54,2.73,CN,1593212622
245,Kerrobert,51.92,-109.13,82.4,37,40,13.87,CA,1593212622
246,Progreso,21.28,-89.67,91.99,78,75,6.93,MX,1593212622
247,Tahoua,14.89,5.27,89.6,35,70,11.41,NE,1593212526
248,Victor Harbor,-35.57,138.62,41.0,95,0,6.82,AU,1593212622
249,Beringovskiy,63.05,179.32,44.96,57,0,26.04,RU,1593212622
250,Kimbe,-5.55,150.14,84.72,65,14,4.5,PG,1593212622
251,Ust'-Charyshskaya Pristan',52.39,83.66,60.75,90,0,5.3,RU,1593212623
252,Kingman,35.19,-114.05,102.0,11,1,16.11,US,1593212623
253,Mackay,-21.15,149.2,59.0,87,90,4.7,AU,1593212623
254,Araouane,18.9,-3.53,97.45,9,0,4.68,ML,1593212623
255,Ko Samui,9.54,99.94,78.8,83,20,2.24,TH,1593212413
256,Lesozavodsk,45.48,133.42,59.0,96,100,3.4,RU,1593212623
257,Kavaratti,10.57,72.64,83.08,73,100,19.35,IN,1593212623
258,Skjern,55.95,8.5,66.0,75,0,8.03,DK,1593212623
259,Tombouctou,20.0,-3.0,96.87,9,26,6.22,ML,1593212623
260,Gilgit,35.92,74.31,74.12,39,1,3.36,PK,1593212624
261,Bayāna,26.9,77.28,87.76,61,78,10.29,IN,1593212624
262,Barretos,-20.56,-48.57,73.49,59,14,3.44,BR,1593212624
263,Jining,35.41,116.58,86.0,34,57,2.1,CN,1593212624
264,Balabac,7.99,117.06,81.57,79,100,4.16,PH,1593212624
265,Inhambane,-23.86,35.38,65.77,87,0,7.67,MZ,1593212624
266,Aykhal,66.0,111.5,62.6,63,90,4.47,RU,1593212624
267,Camacha,33.08,-16.33,68.0,88,75,11.41,PT,1593212624
268,Marolambo,-20.05,48.12,60.06,93,36,1.66,MG,1593212625
269,Souillac,-20.52,57.52,71.6,88,75,11.41,MU,1593212625
270,Bloomingdale,27.89,-82.24,95.0,53,1,8.05,US,1593212556
271,Mil'kovo,54.72,158.62,68.5,51,0,1.72,RU,1593212625
272,Yangi Marg`ilon,40.43,71.72,71.6,49,20,4.7,UZ,1593212625
273,Beloha,-25.17,45.05,67.41,70,96,5.95,MG,1593212625
274,Guerrero Negro,27.98,-114.06,75.29,53,4,18.41,MX,1593212625
275,Nara,34.69,135.8,80.01,88,75,1.12,JP,1593212465
276,Dubovskoye,47.41,42.76,65.89,54,76,5.12,RU,1593212625
277,Kuala Lipis,4.18,102.05,71.49,92,100,0.65,MY,1593212626
278,San Andrés,12.58,-81.7,84.2,79,75,14.99,CO,1593212626
279,Bereda,43.27,-7.54,62.01,90,98,10.0,ES,1593212626
280,Port Lincoln,-34.73,135.87,53.46,56,0,12.08,AU,1593212626
281,São Francisco de Assis,-29.55,-55.13,46.81,70,100,5.73,BR,1593212626
282,Vostok,46.49,135.88,52.57,99,100,3.2,RU,1593212626
283,Turangi,-39.0,175.93,57.0,79,100,3.0,NZ,1593212626
284,Wanning,18.8,110.4,82.33,86,74,10.54,CN,1593212626
285,Waitati,-45.75,170.57,57.0,87,83,15.99,NZ,1593212626
286,Margate,51.38,1.39,64.0,81,29,1.99,GB,1593212583
287,Riyadh,24.69,46.72,84.2,16,0,5.82,SA,1593212405
288,Río Cuarto,-33.13,-64.35,48.2,39,1,14.99,AR,1593212627
289,Vol'sk,52.03,47.38,54.5,83,0,6.67,RU,1593212627
290,Hedaru,-4.5,37.9,64.18,92,25,3.11,TZ,1593212627
291,Padang,-0.95,100.35,78.39,72,100,3.62,ID,1593212627
292,Chalisgaon,20.47,75.02,79.38,81,100,3.15,IN,1593212627
293,Kalmunai,7.42,81.82,79.45,74,92,3.74,LK,1593212627
294,Plouzané,48.38,-4.62,60.8,93,90,18.34,FR,1593212627
295,Jalu,29.03,21.55,78.12,45,0,9.71,LY,1593212628
296,Tuban,-6.9,112.06,73.72,88,35,5.55,ID,1593212628
297,Gachsaran,30.36,50.8,86.0,22,0,1.95,IR,1593212628
298,Konosha,60.97,40.26,58.96,94,86,7.87,RU,1593212628
299,Ponta Delgada,37.73,-25.67,66.2,82,20,5.82,PT,1593212628
300,Kahului,20.89,-156.47,87.8,52,40,21.92,US,1593212628
301,Zhanakorgan,43.91,67.25,59.14,51,1,17.07,KZ,1593212628
302,Evensk,61.95,159.23,51.22,81,37,8.72,RU,1593212628
303,Meulaboh,4.14,96.13,76.19,89,100,3.69,ID,1593212629
304,Kitimat,54.05,-128.65,62.6,63,75,16.11,CA,1593212629
305,Great Yarmouth,52.61,1.73,70.0,88,58,4.0,GB,1593212525
306,Upernavik,72.79,-56.15,37.81,87,94,5.35,GL,1593212629
307,Mayumba,-3.43,10.66,71.37,85,3,2.89,GA,1593212629
308,Bariloche,-41.15,-71.31,30.0,79,90,8.05,AR,1593212388
309,San Rafael del Sur,11.85,-86.44,91.4,49,20,18.34,NI,1593212440
310,Usinsk,65.99,57.53,41.05,83,92,7.7,RU,1593212629
311,Ambilobe,-13.2,49.05,67.64,85,1,3.2,MG,1593212629
312,Zhob,31.34,69.45,78.84,40,0,2.62,PK,1593212498
313,Nombre de Jesús,15.35,-86.68,79.5,73,42,4.12,HN,1593212630
314,Kishangarh,26.57,74.87,87.78,55,57,13.49,IN,1593212630
315,Oyama,36.3,139.8,80.01,88,75,2.24,JP,1593212630
316,Ulaangom,49.98,92.07,60.78,66,15,1.14,MN,1593212630
317,Nelipyno,48.56,23.03,66.99,98,81,11.99,UA,1593212630
318,Jablah,35.36,35.93,69.8,83,1,4.7,SY,1593212630
319,Ceyhan,37.02,35.82,75.0,100,20,1.03,TR,1593212630
320,North Platte,41.12,-100.77,87.8,43,1,10.29,US,1593212468
321,Bam,29.11,58.36,81.36,15,0,4.92,IR,1593212631
322,Sterling,39.01,-77.43,86.0,42,1,4.7,US,1593212592
323,Sechura,-5.56,-80.82,70.3,65,1,17.67,PE,1593212631
324,Garmsār,35.22,52.34,74.01,45,0,6.33,IR,1593212631
325,Cosalá,24.41,-106.69,86.0,69,79,7.0,MX,1593212631
326,Dali,25.7,100.18,63.23,85,99,5.01,CN,1593212631
327,Pangnirtung,66.15,-65.71,44.6,87,90,9.17,CA,1593212631
328,Dhidhdhoo,6.88,73.1,80.83,78,100,11.45,MV,1593212631
329,Cambridge,43.36,-80.31,80.6,42,1,14.99,CA,1593212509
330,Baytown,29.74,-94.98,84.0,84,100,7.27,US,1593212631
331,Albemarle,35.35,-80.2,89.01,40,1,5.82,US,1593212608
332,Bhag,29.04,67.82,93.56,45,0,11.3,PK,1593212632
333,Ribas do Rio Pardo,-20.44,-53.76,67.6,93,46,4.16,BR,1593212632
334,Andrushivka,50.02,29.02,61.39,88,0,5.88,UA,1593212632
335,Bonavista,48.65,-53.11,58.15,97,80,3.83,CA,1593212632
336,Kieta,-6.22,155.63,84.63,68,77,7.74,PG,1593212632
337,Ilulissat,69.22,-51.1,39.2,86,32,5.82,GL,1593212632
338,Nzega,-2.48,29.56,58.26,80,87,2.89,RW,1593212632
339,Port Hardy,50.7,-127.42,59.0,87,75,13.87,CA,1593212632
340,Plettenberg Bay,-34.05,23.37,53.96,74,0,6.35,ZA,1593212633
341,Mwene-Ditu,-7.0,23.45,67.17,42,67,1.86,CD,1593212633
342,Fenoarivo,-18.93,47.44,57.2,93,75,5.82,MG,1593212633
343,Barra de Tecoanapa,16.52,-98.75,85.86,70,98,12.5,MX,1593212633
344,Berlevåg,70.86,29.09,42.8,93,90,21.92,NO,1593212633
345,Mongo,12.18,18.69,84.99,52,48,3.65,TD,1593212633
346,Davidson,36.15,-86.78,80.6,65,75,10.29,US,1593212633
347,Donauwörth,48.7,10.8,63.0,93,98,1.01,DE,1593212633
348,Kurchum,48.57,83.65,64.9,44,37,7.47,KZ,1593212633
349,Waiouru,-39.48,175.67,49.87,82,100,7.34,NZ,1593212634
350,Isangel,-19.55,169.27,75.2,69,10,9.17,VU,1593212634
351,Mīzan Teferī,6.98,35.58,60.28,92,43,2.91,ET,1593212634
352,Shelton,41.32,-73.09,84.99,42,1,9.17,US,1593212634
353,Bahía Solano,6.23,-77.4,80.13,83,91,7.92,CO,1593212634
354,Abaza,52.66,90.09,55.89,90,0,3.27,RU,1593212634
355,Gatak,-7.59,110.7,70.48,91,0,2.71,ID,1593212634
356,Suntar,62.14,117.63,65.12,73,81,2.17,RU,1593212634
357,Popondetta,-8.75,148.25,82.35,65,24,0.67,PG,1593212634
358,Thinadhoo,0.53,72.93,84.16,77,100,9.22,MV,1593212635
359,Jamame,0.07,42.75,76.96,83,59,10.54,SO,1593212635
360,Pangody,65.85,74.49,51.78,82,72,16.31,RU,1593212635
361,Dusnok,46.39,18.96,68.16,91,3,11.1,HU,1593212635
362,La Santisima Trinidad,-14.83,-64.9,65.95,75,63,3.36,BO,1593212635
363,Kununurra,-15.77,128.73,57.2,30,0,3.36,AU,1593212635
364,Jasper,37.2,-94.35,89.6,52,20,10.29,US,1593212635
365,Takoradze,4.88,-1.76,77.29,87,77,11.25,GH,1593212635
366,Vardø,70.37,31.11,46.4,75,75,21.92,NO,1593212636
367,Tomatlán,19.93,-105.25,81.7,65,100,1.3,MX,1593212636
368,São Raimundo Nonato,-9.02,-42.7,75.22,49,4,4.18,BR,1593212636
369,Valley City,46.92,-98.0,82.4,39,1,10.29,US,1593212636
370,Cockburn Town,21.46,-71.14,84.2,74,40,13.87,TC,1593212636
371,Broken Hill,-31.95,141.43,44.6,70,90,8.68,AU,1593212636
372,Changde,29.05,111.68,78.24,94,71,0.67,CN,1593212636
373,Port Blair,11.67,92.75,81.81,80,100,10.8,IN,1593212636
374,Begunitsy,59.59,29.32,66.2,68,0,2.24,RU,1593212637
375,Egvekinot,66.32,-179.17,30.52,97,100,21.68,RU,1593212637
376,Garissa,-0.45,39.64,74.43,78,5,17.22,KE,1593212637
377,Key West,24.56,-81.78,91.4,66,1,12.75,US,1593212377
378,Hirado,33.36,129.55,80.6,88,75,13.87,JP,1593212637
379,Erbil,36.19,44.01,80.6,18,0,2.24,IQ,1593212477
380,Marystown,47.17,-55.15,58.51,82,18,7.27,CA,1593212637
381,Labuhan,-6.88,112.21,74.1,88,35,6.51,ID,1593212637
382,Amapá,1.0,-52.0,73.0,97,100,2.86,BR,1593212637
383,Mier,26.43,-99.15,91.4,55,40,17.22,MX,1593212637
384,Sungai Penuh,-2.08,101.38,64.22,92,96,3.02,ID,1593212638
385,Sambava,-14.27,50.17,71.55,87,22,12.44,MG,1593212638
386,Alice Springs,-23.7,133.88,33.8,59,0,4.7,AU,1593212609
387,Mount Gambier,-37.83,140.77,42.8,87,90,10.29,AU,1593212638
388,Faya,18.39,42.45,77.0,25,66,6.93,SA,1593212638
389,Nicoya,10.15,-85.45,87.8,58,75,16.11,CR,1593212638
390,San Vicente,-26.62,-54.13,46.74,80,100,5.37,AR,1593212638
391,Opuwo,-18.06,13.84,48.74,51,0,4.81,NA,1593212638
392,Saravan,39.72,45.65,71.6,49,20,13.87,AM,1593212638
393,Kumano,34.34,132.59,73.4,88,75,3.36,JP,1593212639
394,Ayan,56.45,138.17,45.81,95,100,4.16,RU,1593212639
395,Shahrud,36.42,54.98,62.38,56,0,15.3,IR,1593212639
396,Labuan,5.28,115.24,78.8,83,75,4.7,MY,1593212639
397,Kwang Binh,17.48,106.6,81.81,75,63,7.09,VN,1593212639
398,Dwārka,22.24,68.97,85.42,79,94,13.89,IN,1593212639
399,Aklavik,68.22,-135.01,55.4,54,75,9.17,CA,1593212639
400,Leh,34.17,77.58,54.25,42,0,5.23,IN,1593212639
401,Dābhol,17.6,73.17,79.21,89,100,4.63,IN,1593212639
402,Marfino,55.7,37.38,73.0,77,0,6.71,RU,1593212406
403,Sabha,27.04,14.43,78.98,21,0,10.25,LY,1593212640
404,Norheimsund,60.37,6.15,68.0,72,17,9.17,NO,1593212640
405,Gračac,44.3,15.85,70.0,82,0,2.33,HR,1593212640
406,Kokopo,-4.35,152.26,82.11,74,18,2.51,PG,1593212640
407,Araceli,10.55,119.99,83.59,73,99,7.56,PH,1593212640
408,Coquimbo,-29.95,-71.34,55.4,76,61,9.17,CL,1593212640
409,Bad Münstereifel,50.55,6.77,66.0,86,100,4.05,DE,1593212640
410,Una,20.82,71.03,84.56,76,83,9.64,IN,1593212640
411,Kinsale,51.71,-8.53,55.99,100,75,8.05,IE,1593212640
412,Magaria,13.0,8.91,84.63,46,100,15.23,NE,1593212641
413,Molango,20.78,-98.72,64.47,100,100,5.41,MX,1593212641
414,Cap Malheureux,-19.98,57.61,70.0,86,23,5.99,MU,1593212641
415,Hamilton,39.18,-84.53,84.99,78,1,8.05,US,1593212470
416,Kushmurun,52.45,64.63,48.16,79,0,11.61,KZ,1593212641
417,São João da Barra,-21.64,-41.05,70.56,81,85,5.3,BR,1593212363
418,Verkhnechusovskiye Gorodki,58.17,57.11,39.42,94,49,3.69,RU,1593212641
419,Huangmei,30.19,116.03,78.3,90,100,2.66,CN,1593212641
420,Rundu,-17.93,19.77,53.6,46,0,1.12,NA,1593212641
421,Sabang,5.89,95.32,81.5,76,96,7.16,ID,1593212642
422,Ugoofaaru,5.67,73.0,80.82,77,100,14.18,MV,1593212642
423,Saryozek,44.36,77.98,63.79,45,100,2.86,KZ,1593212642
424,Arkhara,49.42,130.08,64.58,87,98,3.62,RU,1593212642
425,Krasnyy Chikoy,50.36,108.75,63.55,67,69,2.82,RU,1593212642
426,Klaksvík,62.23,-6.59,51.8,100,100,1.12,FO,1593212642
427,Broome,42.25,-75.83,75.2,44,1,4.7,US,1593212642
428,Umm Bāb,25.21,50.81,88.0,45,1,9.17,QA,1593212642
429,Ukiah,39.15,-123.21,105.8,23,1,6.93,US,1593212178
430,Ostrów Wielkopolski,51.66,17.81,64.99,88,66,6.46,PL,1593212643
431,Kiryat Gat,31.61,34.76,73.99,79,0,1.3,IL,1593212643
432,Bangkalan,-7.05,112.74,75.06,86,49,3.49,ID,1593212643
433,Måløy,61.94,5.11,68.0,77,21,5.82,NO,1593212643
434,Sirte,31.21,16.59,72.3,85,0,8.48,LY,1593212643
435,Muskogee,35.58,-95.33,88.0,58,20,6.93,US,1593212462
436,Chui,-33.7,-53.46,45.16,74,47,5.75,UY,1593212643
437,Chillán,-36.61,-72.1,48.2,93,90,9.17,CL,1593212519
438,Katsuura,35.13,140.3,79.0,88,75,5.82,JP,1593212643
439,Delta del Tigre,-34.76,-56.39,46.4,75,92,3.36,UY,1593212644
440,Saint George,37.1,-113.58,100.4,9,1,6.93,US,1593212405
441,Khovd,48.01,91.64,60.76,49,12,2.3,MN,1593212644
442,Miraflores,19.22,-98.81,77.0,33,40,9.17,MX,1593212644
443,Vila Velha,-20.33,-40.29,73.4,83,82,5.82,BR,1593212414
444,Znamenskoye,57.13,73.83,48.43,94,100,6.38,RU,1593212644
445,Oranjestad,12.52,-70.03,86.0,74,20,19.46,AW,1593212410
446,Lagos,6.58,3.75,73.4,94,75,2.24,NG,1593212544
447,Poconé,-16.26,-56.62,72.68,77,3,6.71,BR,1593212645
448,Alofi,-19.06,-169.92,78.8,69,99,13.87,NU,1593212645
449,San Ramon,37.78,-121.98,89.6,31,1,16.11,US,1593212410
450,Akdepe,42.06,59.38,60.8,51,0,4.7,TM,1593212645
451,Saint Anthony,45.02,-93.22,87.8,40,1,12.75,US,1593212645
452,Diamantino,-14.41,-56.45,76.24,56,39,2.42,BR,1593212645
453,Domoni,-12.26,44.53,74.23,79,35,4.9,KM,1593212645
454,Sampit,-2.53,112.95,72.68,98,98,1.07,ID,1593212645
455,Borazjan,29.27,51.22,85.24,27,0,1.68,IR,1593212646
456,Van Wert,40.87,-84.58,82.99,61,1,9.17,US,1593212646
457,Chifeng,42.27,118.96,67.23,63,72,3.06,CN,1593212646
458,Wagga Wagga,-35.12,147.37,39.99,100,0,6.93,AU,1593212646
459,Half Moon Bay,37.46,-122.43,82.0,60,5,13.87,US,1593212646
460,Sicuani,-14.27,-71.23,49.14,45,0,3.87,PE,1593212646
461,Adrar,20.5,-10.07,97.21,13,33,1.23,MR,1593212646
462,Yumen,40.28,97.2,58.98,69,83,24.32,CN,1593212646
463,Yar-Sale,66.83,70.83,50.88,84,71,3.42,RU,1593212646
464,Pucallpa,-8.38,-74.55,84.2,70,40,5.82,PE,1593212647
465,Smolenka,52.14,113.5,60.8,77,88,2.24,RU,1593212647
466,Dubai,25.26,55.3,98.6,50,91,4.7,AE,1593212647
467,Korla,41.76,86.15,79.0,82,41,1.01,CN,1593212647
468,Hervey Bay,-25.3,152.85,59.0,89,44,5.99,AU,1593212647
469,Saraipali,21.33,83.0,83.16,67,100,1.99,IN,1593212647
470,Tay Ninh,11.3,106.1,76.44,91,100,3.78,VN,1593212647
471,Omsukchan,62.53,155.8,71.6,43,23,6.29,RU,1593212647
472,Petropavlovsk-Kamchatskiy,53.05,158.65,69.8,60,0,2.24,RU,1593212600
473,Krasnyy Tkach,55.47,39.08,62.6,88,0,4.47,RU,1593212647
474,General Roca,-39.03,-67.58,33.8,93,90,3.36,AR,1593212648
475,Soyo,-6.13,12.37,72.88,82,2,9.15,AO,1593212648
476,Svetlaya,46.54,138.33,53.33,94,100,11.7,RU,1593212648
477,San Patricio,19.22,-104.7,82.4,83,90,13.87,MX,1593212648
478,Orvault,47.27,-1.62,62.6,82,40,6.93,FR,1593212648
479,Borogontsy,62.67,131.17,76.39,39,11,3.8,RU,1593212648
480,Perm,58.02,56.29,44.6,87,43,11.18,RU,1593212648
481,Otavi,-19.65,17.33,50.83,42,0,4.79,NA,1593212648
482,Qandala,11.47,49.87,91.42,53,79,1.79,SO,1593212648
483,Nakatsugawa,35.48,137.5,75.0,84,81,4.0,JP,1593212648
484,Anaconda,46.13,-112.94,84.2,17,1,13.87,US,1593212628
485,Béja,36.73,9.18,82.4,94,20,1.81,TN,1593212649
486,Zyryanka,65.75,150.85,73.02,24,14,10.71,RU,1593212649
487,San Juan,-31.54,-68.54,48.18,47,0,5.35,AR,1593212625
488,Malakal,9.53,31.66,74.52,79,78,2.3,SS,1593212649
489,Andenes,69.31,16.12,46.4,87,57,3.36,NO,1593212649
490,Kota Belud,6.35,116.43,75.2,88,20,4.7,MY,1593212649
491,Los Llanos de Aridane,28.66,-17.92,71.6,68,90,18.34,ES,1593212649
492,Lorengau,-2.02,147.27,84.92,71,50,9.71,PG,1593212650
493,Monrovia,6.3,-10.8,77.49,86,100,11.97,LR,1593212650
494,Chumikan,54.72,135.31,45.1,93,100,5.86,RU,1593212650
495,Pakenham,-38.07,145.48,46.0,96,0,2.35,AU,1593212492
496,Port Hedland,-20.32,118.57,51.8,50,0,3.36,AU,1593212650
497,Suicheng,33.9,117.93,84.0,43,55,18.99,CN,1593212650
498,Tucuruí,-3.77,-49.67,77.4,71,21,3.04,BR,1593212650
499,Mehrān,33.12,46.16,71.6,13,0,4.7,IR,1593212650
500,Flinders,-34.58,150.86,53.01,78,52,3.0,AU,1593212650
501,Gewanē,10.17,40.65,87.46,17,56,4.59,ET,1593212650
502,Quelimane,-17.88,36.89,68.0,94,0,3.36,MZ,1593212651
503,Colomi,-17.35,-65.87,66.2,37,20,13.87,BO,1593212651
504,Kindu,-2.95,25.95,69.39,92,23,1.83,CD,1593212651
505,Manggar,-2.88,108.27,80.42,82,74,10.2,ID,1593212651
506,Shestakovo,56.49,103.96,67.08,72,33,1.68,RU,1593212479
507,Mergen,49.18,125.22,64.35,85,92,4.03,CN,1593212651
508,Coahuayana Viejo,18.73,-103.68,77.27,84,100,1.7,MX,1593212651
509,Merrill,45.18,-89.68,78.01,73,40,10.29,US,1593212651
510,Herat Province,34.5,62.0,77.0,38,0,11.41,AF,1593212652
511,Tazovsky,67.47,78.7,53.17,76,81,15.21,RU,1593212652
512,Taltal,-25.4,-70.48,57.4,75,16,5.37,CL,1593212652
513,Maniitsoq,65.42,-52.9,40.87,87,18,9.95,GL,1593212652
514,Boddam,57.47,-1.78,60.01,100,90,3.36,GB,1593212652
515,Örnsköldsvik,63.29,18.72,62.6,82,3,2.24,SE,1593212652
516,Tahe,52.33,124.73,67.89,58,0,2.59,CN,1593212652
517,Matara,5.95,80.54,78.17,88,70,9.06,LK,1593212652
518,Ligaya,12.66,120.89,81.52,74,100,3.47,PH,1593212652
519,Naryan-Mar,67.67,53.09,42.78,81,100,2.71,RU,1593212652
520,Maddagiri,13.66,77.21,74.39,81,54,8.1,IN,1593212653
521,Digha,21.68,87.55,84.04,82,100,19.44,IN,1593212653
522,Sørland,67.67,12.69,51.58,83,75,16.02,NO,1593212653
523,Sola,-13.88,167.55,80.64,84,26,20.62,VU,1593212653
524,Cayenne,4.93,-52.33,80.6,88,82,4.7,GF,1593212525
525,De-Kastri,51.47,140.78,54.75,85,100,2.73,RU,1593212653
526,Murray Bridge,-35.12,139.27,51.01,75,0,8.34,AU,1593212653
527,Garoowe,8.41,48.48,83.82,44,100,27.54,SO,1593212653
528,Moorhead,46.87,-96.77,84.2,39,1,11.41,US,1593212654
529,Tura,25.52,90.22,73.02,99,100,9.08,IN,1593212654
530,Qui Nhon,13.77,109.23,80.28,78,80,4.29,VN,1593212448
531,Meadow Lake,34.8,-106.54,93.0,9,75,3.36,US,1593212407
532,Morón,-34.65,-58.62,51.01,63,100,1.88,AR,1593212417
533,Juegang,32.32,121.19,79.0,95,100,5.75,CN,1593212654
534,Birao,10.28,22.79,76.12,76,95,3.09,CF,1593212654
535,Córdoba,-31.41,-64.18,50.0,36,1,11.41,AR,1593212654
536,Yambio,4.57,28.4,67.21,97,100,4.41,SS,1593212654
537,Aleppo Governorate,36.25,37.5,72.39,66,0,15.55,SY,1593212655
538,Ola,59.58,151.28,53.98,76,42,11.59,RU,1593212655
539,Shagonar,51.53,92.8,59.22,71,37,1.28,RU,1593212655
540,Talnakh,69.49,88.4,59.0,82,100,6.71,RU,1593212655
541,Cabedelo,-6.98,-34.83,73.4,94,80,4.7,BR,1593212655
542,Lashio,22.93,97.75,68.67,100,100,2.21,MM,1593212655
543,Asău,46.43,26.4,55.99,93,5,1.95,RO,1593212655
544,Charter Township of Clinton,42.59,-82.92,82.0,51,75,9.17,US,1593212537
545,Pemagatsel,27.03,91.43,62.11,100,100,1.07,BT,1593212655
546,Itajobi,-21.32,-49.05,71.13,77,85,1.16,BR,1593212656
547,Cliza,-17.6,-65.93,66.2,37,20,13.87,BO,1593212656
548,Mporokoso,-9.37,30.12,59.25,81,34,4.32,ZM,1593212656
549,Vredendal,-31.67,18.5,52.07,81,0,6.8,ZA,1593212656
550,Lexington,37.99,-84.48,84.99,54,1,12.75,US,1593212503
551,Zhigansk,66.77,123.37,73.74,40,69,3.27,RU,1593212656
552,Namatanai,-3.67,152.43,79.72,83,72,8.14,PG,1593212656
553,Alexandria,31.22,29.96,73.69,86,0,9.35,EG,1593212656
554,Mahon,39.89,4.27,71.6,88,40,9.17,ES,1593212497
555,Natal,-5.79,-35.21,75.2,100,75,10.29,BR,1593212657
556,Kisangani,0.52,25.2,69.51,96,43,1.59,CD,1593212657
557,Biak,-0.91,122.88,75.33,87,100,4.94,ID,1593212657
558,Norrtälje,59.76,18.7,69.01,79,66,6.26,SE,1593212438
559,Levice,48.22,18.61,70.0,88,0,5.01,SK,1593212657
560,Rochegda,62.8,43.25,52.75,90,70,6.58,RU,1593212657
561,Markova,48.68,24.41,59.32,86,96,4.72,UA,1593212657
562,Zhuanghe,39.7,122.99,70.34,77,5,8.5,CN,1593212657
563,Kaka,37.35,59.61,82.22,24,84,4.07,TM,1593212658
564,Empório,40.48,21.55,62.6,77,63,4.7,GR,1593212658
565,Belyy Yar,53.6,91.39,55.4,93,69,3.0,RU,1593212658
566,Çine,37.61,28.06,73.4,78,0,2.24,TR,1593212658
567,Naze,28.37,129.48,80.6,94,75,16.11,JP,1593212658
568,Kamakwie,9.5,-12.23,75.42,93,45,3.91,SL,1593212658
569,Marabá,-5.37,-49.12,78.8,78,16,0.92,BR,1593212521
570,Cascais,38.7,-9.42,68.0,96,25,8.66,PT,1593212606
571,Ürümqi,43.8,87.6,73.4,40,3,4.47,CN,1593212658
572,Pitimbu,-7.47,-34.81,73.4,94,90,4.7,BR,1593212659
573,Tasiilaq,65.61,-37.64,41.0,86,98,3.36,GL,1593212659
574,Bundaberg,-24.85,152.35,63.0,82,40,6.93,AU,1593212659
575,Novoorsk,51.38,58.98,42.8,93,42,11.18,RU,1593212659
576,Jumla,29.27,82.18,58.05,70,68,0.36,NP,1593212659
577,Awjilah,29.11,21.29,77.05,49,0,8.48,LY,1593212659
578,Ambunti,-4.24,142.84,82.04,76,71,0.58,PG,1593212659
579,Stornoway,58.21,-6.39,57.99,87,91,6.93,GB,1593212659
580,Pallisa,1.15,33.71,66.63,88,75,1.72,UG,1593212660
581,Fairbanks,64.84,-147.72,66.99,39,40,4.7,US,1593212660
582,Porosozero,62.72,32.73,59.56,90,81,5.46,RU,1593212660
583,Husavik,66.04,-17.34,48.2,93,75,6.93,IS,1593212660
584,Gayéri,12.65,0.49,93.97,30,89,4.9,BF,1593212660
